{"airportlist" : [
    {
        "airport_id": 43117,
        "airport_ident": "CH-0001",
        "type": "heliport",
        "name": "San Vittore Heliport",
        "latitude_deg": 46.2316246033,
        "longitude_deg": 9.0895318985,
        "elevation_ft": null,
        "municipality": "San Vittore",
        "iata_code": null,
        "runways": [
            {
                "runway_id": 318085,
                "length_ft": 82.0,
                "width_ft": 82.0,
                "surface": "Concrete",
                "lighted": 1,
                "le_ident": "H1",
                "le_latitude_deg": NaN,
                "le_longitude_deg": NaN,
                "le_elevation_ft": NaN,
                "le_heading_degT": NaN,
                "he_ident": NaN,
                "he_latitude_deg": NaN,
                "he_longitude_deg": NaN,
                "he_elevation_ft": NaN,
                "he_heading_degT": NaN
            }
        ]
    },
    {
        "airport_id": 316432,
        "airport_ident": "CH-0002",
        "type": "small_airport",
        "name": "Altiport de Croix de Coeur",
        "latitude_deg": 46.12338,
        "longitude_deg": 7.23425,
        "elevation_ft": null,
        "municipality": null,
        "iata_code": null,
        "runways": []
    },
    {
        "airport_id": 319833,
        "airport_ident": "CH-0003",
        "type": "small_airport",
        "name": "Altisurface du Glacier de Prasfleuri",
        "latitude_deg": 46.064289,
        "longitude_deg": 7.354317,
        "elevation_ft": null,
        "municipality": null,
        "iata_code": null,
        "runways": []
    },
    {
        "airport_id": 320391,
        "airport_ident": "CH-0004",
        "type": "small_airport",
        "name": "Altiport du Glacier de Tsanfleuron",
        "latitude_deg": 46.3206526,
        "longitude_deg": 7.2328797,
        "elevation_ft": null,
        "municipality": null,
        "iata_code": null,
        "runways": []
    },
    {
        "airport_id": 324870,
        "airport_ident": "CH-0005",
        "type": "heliport",
        "name": "Helipad Klinik Gut (St. Moritz)",
        "latitude_deg": 46.4965,
        "longitude_deg": 9.83847,
        "elevation_ft": null,
        "municipality": "St Moritz",
        "iata_code": null,
        "runways": []
    },
    {
        "airport_id": 324871,
        "airport_ident": "CH-0006",
        "type": "heliport",
        "name": "Helipad Station Corvatsch",
        "latitude_deg": 46.417793,
        "longitude_deg": 9.820909,
        "elevation_ft": 10837.0,
        "municipality": "Silvaplana",
        "iata_code": null,
        "runways": []
    },
    {
        "airport_id": 355531,
        "airport_ident": "CH-0008",
        "type": "heliport",
        "name": "REGA basis Erstfeld",
        "latitude_deg": 46.83416,
        "longitude_deg": 8.63832,
        "elevation_ft": null,
        "municipality": null,
        "iata_code": null,
        "runways": []
    },
    {
        "airport_id": 43112,
        "airport_ident": "LSER",
        "type": "heliport",
        "name": "Raron Heliport",
        "latitude_deg": 46.301594,
        "longitude_deg": 7.833207,
        "elevation_ft": null,
        "municipality": "Raron",
        "iata_code": null,
        "runways": []
    },
    {
        "airport_id": 43111,
        "airport_ident": "LSEZ",
        "type": "heliport",
        "name": "Zermatt  Heliport",
        "latitude_deg": 46.0293197632,
        "longitude_deg": 7.7533664703,
        "elevation_ft": null,
        "municipality": "Zermatt",
        "iata_code": null,
        "runways": []
    },
    {
        "airport_id": 29494,
        "airport_ident": "LSGB",
        "type": "small_airport",
        "name": "Bex Airport",
        "latitude_deg": 46.2583007812,
        "longitude_deg": 6.9863901138,
        "elevation_ft": 1312.0,
        "municipality": "Bex",
        "iata_code": null,
        "runways": [
            {
                "runway_id": 256697,
                "length_ft": 2297.0,
                "width_ft": 98.0,
                "surface": "GRASS",
                "lighted": 0,
                "le_ident": "15",
                "le_latitude_deg": 46.259674072265625,
                "le_longitude_deg": 6.984917163848877,
                "le_elevation_ft": 1312.0,
                "le_heading_degT": NaN,
                "he_ident": "33",
                "he_latitude_deg": 46.25626754760742,
                "he_longitude_deg": 6.988131046295166,
                "he_elevation_ft": 1312.0,
                "he_heading_degT": NaN
            }
        ]
    },
    {
        "airport_id": 4489,
        "airport_ident": "LSGC",
        "type": "medium_airport",
        "name": "Les Eplatures Airport",
        "latitude_deg": 47.0839004517,
        "longitude_deg": 6.792840004,
        "elevation_ft": 3368.0,
        "municipality": "La Chaux-de-Fonds",
        "iata_code": null,
        "runways": [
            {
                "runway_id": 239133,
                "length_ft": 3707.0,
                "width_ft": 89.0,
                "surface": "ASP",
                "lighted": 1,
                "le_ident": "06",
                "le_latitude_deg": 47.08100128173828,
                "le_longitude_deg": 6.787020206451416,
                "le_elevation_ft": 3368.0,
                "le_heading_degT": 54.2,
                "he_ident": "24",
                "he_latitude_deg": 47.08689880371094,
                "he_longitude_deg": 6.7990899085998535,
                "he_elevation_ft": 3343.0,
                "he_heading_degT": 234.2
            }
        ]
    },
    {
        "airport_id": 29495,
        "airport_ident": "LSGE",
        "type": "small_airport",
        "name": "Ecuvillens Airport",
        "latitude_deg": 46.755001,
        "longitude_deg": 7.07611,
        "elevation_ft": 2293.0,
        "municipality": null,
        "iata_code": null,
        "runways": [
            {
                "runway_id": 256698,
                "length_ft": 2625.0,
                "width_ft": 75.0,
                "surface": "ASPH",
                "lighted": 1,
                "le_ident": "09",
                "le_latitude_deg": 46.755596,
                "le_longitude_deg": 7.070533,
                "le_elevation_ft": 2281.0,
                "le_heading_degT": 95.0,
                "he_ident": "27",
                "he_latitude_deg": 46.754967,
                "he_longitude_deg": 7.080964,
                "he_elevation_ft": 2294.0,
                "he_heading_degT": 275.0
            }
        ]
    },
    {
        "airport_id": 4490,
        "airport_ident": "LSGG",
        "type": "large_airport",
        "name": "Geneva Cointrin International Airport",
        "latitude_deg": 46.2380981445,
        "longitude_deg": 6.1089501381,
        "elevation_ft": 1411.0,
        "municipality": "Geneva",
        "iata_code": "GVA",
        "runways": [
            {
                "runway_id": 239116,
                "length_ft": 12795.0,
                "width_ft": 164.0,
                "surface": "CONC",
                "lighted": 1,
                "le_ident": "04",
                "le_latitude_deg": 46.22579956054688,
                "le_longitude_deg": 6.0909199714660645,
                "le_elevation_ft": 1411.0,
                "le_heading_degT": 45.5,
                "he_ident": "22",
                "he_latitude_deg": 46.25040054321289,
                "he_longitude_deg": 6.126989841461182,
                "he_elevation_ft": 1365.0,
                "he_heading_degT": 225.5
            },
            {
                "runway_id": 239117,
                "length_ft": 2700.0,
                "width_ft": 98.0,
                "surface": "GRASS CAUTION: ATC do NOT apply wake turbulence separation!",
                "lighted": 0,
                "le_ident": "04L",
                "le_latitude_deg": 46.234798,
                "le_longitude_deg": 6.0995,
                "le_elevation_ft": 1378.0,
                "le_heading_degT": 46.0,
                "he_ident": "22R",
                "he_latitude_deg": 46.239899,
                "he_longitude_deg": 6.10722,
                "he_elevation_ft": 1393.0,
                "he_heading_degT": 226.0
            }
        ]
    },
    {
        "airport_id": 4491,
        "airport_ident": "LSGK",
        "type": "small_airport",
        "name": "Saanen Airfield",
        "latitude_deg": 46.487499,
        "longitude_deg": 7.25083,
        "elevation_ft": 3307.0,
        "municipality": "Saanen",
        "iata_code": null,
        "runways": [
            {
                "runway_id": 239109,
                "length_ft": 4593.0,
                "width_ft": 131.0,
                "surface": "ASP",
                "lighted": 0,
                "le_ident": "08",
                "le_latitude_deg": 46.48585891723633,
                "le_longitude_deg": 7.243291854858398,
                "le_elevation_ft": 3278.0,
                "le_heading_degT": 81.0,
                "he_ident": "26",
                "he_latitude_deg": 46.48717498779297,
                "he_longitude_deg": 7.2533278465271,
                "he_elevation_ft": 3297.0,
                "he_heading_degT": 261.0
            }
        ]
    },
    {
        "airport_id": 29496,
        "airport_ident": "LSGL",
        "type": "small_airport",
        "name": "Lausanne-Bl\u00e9cherette Airport",
        "latitude_deg": 46.5453,
        "longitude_deg": 6.61667,
        "elevation_ft": 2041.0,
        "municipality": "Lausanne",
        "iata_code": null,
        "runways": [
            {
                "runway_id": 250741,
                "length_ft": 2871.0,
                "width_ft": 75.0,
                "surface": "CONC",
                "lighted": 0,
                "le_ident": "18",
                "le_latitude_deg": 46.54850006103516,
                "le_longitude_deg": 6.617000102996826,
                "le_elevation_ft": 2031.0,
                "le_heading_degT": NaN,
                "he_ident": "36",
                "he_latitude_deg": 46.54217147827149,
                "he_longitude_deg": 6.616330146789551,
                "he_elevation_ft": 1995.0,
                "he_heading_degT": NaN
            }
        ]
    },
    {
        "airport_id": 29497,
        "airport_ident": "LSGN",
        "type": "small_airport",
        "name": "Neuchatel Airfield",
        "latitude_deg": 46.9575,
        "longitude_deg": 6.86472,
        "elevation_ft": 1427.0,
        "municipality": null,
        "iata_code": null,
        "runways": [
            {
                "runway_id": 250742,
                "length_ft": 2295.0,
                "width_ft": 66.0,
                "surface": "CONCRETE",
                "lighted": 0,
                "le_ident": "05",
                "le_latitude_deg": NaN,
                "le_longitude_deg": NaN,
                "le_elevation_ft": 1434.0,
                "le_heading_degT": NaN,
                "he_ident": "23",
                "he_latitude_deg": NaN,
                "he_longitude_deg": NaN,
                "he_elevation_ft": 1424.0,
                "he_heading_degT": NaN
            }
        ]
    },
    {
        "airport_id": 29498,
        "airport_ident": "LSGP",
        "type": "small_airport",
        "name": "La C\u00f4te Airport",
        "latitude_deg": 46.4063987732,
        "longitude_deg": 6.2580599785,
        "elevation_ft": 1352.0,
        "municipality": "La C\u00f4te",
        "iata_code": null,
        "runways": [
            {
                "runway_id": 254531,
                "length_ft": 1837.0,
                "width_ft": 98.0,
                "surface": "GRASS",
                "lighted": 0,
                "le_ident": "04",
                "le_latitude_deg": NaN,
                "le_longitude_deg": NaN,
                "le_elevation_ft": NaN,
                "le_heading_degT": NaN,
                "he_ident": "22",
                "he_latitude_deg": NaN,
                "he_longitude_deg": NaN,
                "he_elevation_ft": NaN,
                "he_heading_degT": NaN
            }
        ]
    },
    {
        "airport_id": 30327,
        "airport_ident": "LSGR",
        "type": "small_airport",
        "name": "Reichenbach Air Base",
        "latitude_deg": 46.6136016846,
        "longitude_deg": 7.6777801514,
        "elevation_ft": 2385.0,
        "municipality": null,
        "iata_code": null,
        "runways": [
            {
                "runway_id": 259667,
                "length_ft": 2641.0,
                "width_ft": 59.0,
                "surface": "Asphalt",
                "lighted": 0,
                "le_ident": "03",
                "le_latitude_deg": NaN,
                "le_longitude_deg": NaN,
                "le_elevation_ft": 2372.0,
                "le_heading_degT": NaN,
                "he_ident": "21",
                "he_latitude_deg": NaN,
                "he_longitude_deg": NaN,
                "he_elevation_ft": 2641.0,
                "he_heading_degT": NaN
            }
        ]
    },
    {
        "airport_id": 4492,
        "airport_ident": "LSGS",
        "type": "medium_airport",
        "name": "Sion Airport",
        "latitude_deg": 46.219166,
        "longitude_deg": 7.326944,
        "elevation_ft": 1582.0,
        "municipality": "Sion",
        "iata_code": "SIR",
        "runways": [
            {
                "runway_id": 260324,
                "length_ft": 6562.0,
                "width_ft": 131.0,
                "surface": "ASPH",
                "lighted": 1,
                "le_ident": "07",
                "le_latitude_deg": 46.216698,
                "le_longitude_deg": 7.314575,
                "le_elevation_ft": 1575.0,
                "le_heading_degT": 73.0,
                "he_ident": "25",
                "he_latitude_deg": 46.221981,
                "he_longitude_deg": 7.339386,
                "he_elevation_ft": 1582.0,
                "he_heading_degT": 253.0
            },
            {
                "runway_id": 239113,
                "length_ft": 1837.0,
                "width_ft": 98.0,
                "surface": "GRS",
                "lighted": 0,
                "le_ident": "07L",
                "le_latitude_deg": 46.21849822998047,
                "le_longitude_deg": 7.321070194244385,
                "le_elevation_ft": 1574.0,
                "le_heading_degT": 73.0,
                "he_ident": "25R",
                "he_latitude_deg": 46.220001220703125,
                "he_longitude_deg": 7.3279500007629395,
                "he_elevation_ft": 1577.0,
                "he_heading_degT": 253.0
            },
            {
                "runway_id": 239112,
                "length_ft": 6562.0,
                "width_ft": 131.0,
                "surface": "ASP",
                "lighted": 1,
                "le_ident": "07R",
                "le_latitude_deg": 46.21670150756836,
                "le_longitude_deg": 7.314489841461182,
                "le_elevation_ft": 1580.0,
                "le_heading_degT": 73.0,
                "he_ident": "25L",
                "he_latitude_deg": 46.22200012207031,
                "he_longitude_deg": 7.339489936828613,
                "he_elevation_ft": 1585.0,
                "he_heading_degT": 253.0
            }
        ]
    },
    {
        "airport_id": 29499,
        "airport_ident": "LSGT",
        "type": "small_airport",
        "name": "Gruyeres Airport",
        "latitude_deg": 46.5942001343,
        "longitude_deg": 7.0944399834,
        "elevation_ft": 2257.0,
        "municipality": null,
        "iata_code": null,
        "runways": [
            {
                "runway_id": 249234,
                "length_ft": 2661.0,
                "width_ft": 98.0,
                "surface": "GRASS",
                "lighted": 0,
                "le_ident": "17",
                "le_latitude_deg": NaN,
                "le_longitude_deg": NaN,
                "le_elevation_ft": 2257.0,
                "le_heading_degT": NaN,
                "he_ident": "35",
                "he_latitude_deg": NaN,
                "he_longitude_deg": NaN,
                "he_elevation_ft": 2257.0,
                "he_heading_degT": NaN
            }
        ]
    },
    {
        "airport_id": 29500,
        "airport_ident": "LSGY",
        "type": "small_airport",
        "name": "Yverdon-les-Bains Airport",
        "latitude_deg": 46.7619018555,
        "longitude_deg": 6.6133298874,
        "elevation_ft": 1421.0,
        "municipality": "Yverdon-les-Bains",
        "iata_code": null,
        "runways": [
            {
                "runway_id": 251513,
                "length_ft": 2861.0,
                "width_ft": 59.0,
                "surface": "ASPH",
                "lighted": 1,
                "le_ident": "04",
                "le_latitude_deg": 46.759216,
                "le_longitude_deg": 6.609075,
                "le_elevation_ft": 1421.0,
                "le_heading_degT": NaN,
                "he_ident": "22",
                "he_latitude_deg": 46.764591,
                "he_longitude_deg": 6.617386,
                "he_elevation_ft": 1421.0,
                "he_heading_degT": NaN
            },
            {
                "runway_id": 263458,
                "length_ft": 2379.0,
                "width_ft": 66.0,
                "surface": "GRASS",
                "lighted": 0,
                "le_ident": "05R",
                "le_latitude_deg": NaN,
                "le_longitude_deg": NaN,
                "le_elevation_ft": NaN,
                "le_heading_degT": NaN,
                "he_ident": "23L",
                "he_latitude_deg": NaN,
                "he_longitude_deg": NaN,
                "he_elevation_ft": NaN,
                "he_heading_degT": NaN
            }
        ]
    },
    {
        "airport_id": 324129,
        "airport_ident": "LSHC",
        "type": "heliport",
        "name": "Collombey-Muraz Heliport",
        "latitude_deg": 46.268501,
        "longitude_deg": 6.959773,
        "elevation_ft": null,
        "municipality": "Collombey-Muraz",
        "iata_code": null,
        "runways": []
    },
    {
        "airport_id": 43110,
        "airport_ident": "LSHG",
        "type": "heliport",
        "name": "Gampel Heliport",
        "latitude_deg": 46.310055,
        "longitude_deg": 7.724794,
        "elevation_ft": null,
        "municipality": "Gampel",
        "iata_code": null,
        "runways": []
    },
    {
        "airport_id": 324883,
        "airport_ident": "LSHI",
        "type": "heliport",
        "name": "Inselspital Hospital Heliport",
        "latitude_deg": 46.948295,
        "longitude_deg": 7.424303,
        "elevation_ft": 1880.0,
        "municipality": "Berne",
        "iata_code": null,
        "runways": []
    },
    {
        "airport_id": 4493,
        "airport_ident": "LSMA",
        "type": "medium_airport",
        "name": "Alpnach Air Base",
        "latitude_deg": 46.943901,
        "longitude_deg": 8.28417,
        "elevation_ft": 1460.0,
        "municipality": "Alpnach",
        "iata_code": null,
        "runways": [
            {
                "runway_id": 239115,
                "length_ft": 6135.0,
                "width_ft": 131.0,
                "surface": "ASP",
                "lighted": 1,
                "le_ident": "01",
                "le_latitude_deg": 46.936234,
                "le_longitude_deg": 8.281814,
                "le_elevation_ft": 1460.0,
                "le_heading_degT": 11.0,
                "he_ident": "19",
                "he_latitude_deg": 46.95229,
                "he_longitude_deg": 8.286713,
                "he_elevation_ft": 1425.0,
                "he_heading_degT": 191.0
            }
        ]
    },
    {
        "airport_id": 4494,
        "airport_ident": "LSMD",
        "type": "medium_airport",
        "name": "D\u00fcbendorf Air Base",
        "latitude_deg": 47.398601532,
        "longitude_deg": 8.648229599,
        "elevation_ft": 1470.0,
        "municipality": "Zurich",
        "iata_code": null,
        "runways": [
            {
                "runway_id": 239126,
                "length_ft": 7726.0,
                "width_ft": 130.0,
                "surface": "ASP",
                "lighted": 1,
                "le_ident": "11",
                "le_latitude_deg": 47.4015998840332,
                "le_longitude_deg": 8.633720397949219,
                "le_elevation_ft": 1427.0,
                "le_heading_degT": 107.8,
                "he_ident": "29",
                "he_latitude_deg": 47.395301818847656,
                "he_longitude_deg": 8.6627197265625,
                "he_elevation_ft": 1470.0,
                "he_heading_degT": 287.8
            },
            {
                "runway_id": 239127,
                "length_ft": 2130.0,
                "width_ft": 98.0,
                "surface": "GRS",
                "lighted": 1,
                "le_ident": "11R",
                "le_latitude_deg": 47.4005012512207,
                "le_longitude_deg": 8.63815975189209,
                "le_elevation_ft": 1428.0,
                "le_heading_degT": 108.3,
                "he_ident": "29L",
                "he_latitude_deg": 47.39870071411133,
                "he_longitude_deg": 8.646329879760742,
                "he_elevation_ft": 1437.0,
                "he_heading_degT": 288.3
            }
        ]
    },
    {
        "airport_id": 4495,
        "airport_ident": "LSME",
        "type": "medium_airport",
        "name": "Emmen Air Base",
        "latitude_deg": 47.092444,
        "longitude_deg": 8.305184,
        "elevation_ft": 1400.0,
        "municipality": null,
        "iata_code": "EML",
        "runways": [
            {
                "runway_id": 239118,
                "length_ft": 8208.0,
                "width_ft": 130.0,
                "surface": "ASP",
                "lighted": 1,
                "le_ident": "04",
                "le_latitude_deg": 47.08349990844727,
                "le_longitude_deg": 8.295069694519043,
                "le_elevation_ft": 1400.0,
                "le_heading_degT": 37.6,
                "he_ident": "22",
                "he_latitude_deg": 47.10129928588867,
                "he_longitude_deg": 8.315170288085938,
                "he_elevation_ft": 1385.0,
                "he_heading_degT": 217.6
            }
        ]
    },
    {
        "airport_id": 29503,
        "airport_ident": "LSML",
        "type": "small_airport",
        "name": "Lodrino Air Base",
        "latitude_deg": 46.2958984375,
        "longitude_deg": 8.9921302795,
        "elevation_ft": null,
        "municipality": "Lodrino",
        "iata_code": null,
        "runways": []
    },
    {
        "airport_id": 4497,
        "airport_ident": "LSMM",
        "type": "small_airport",
        "name": "Meiringen Airport",
        "latitude_deg": 46.743301,
        "longitude_deg": 8.11,
        "elevation_ft": 1895.0,
        "municipality": null,
        "iata_code": null,
        "runways": [
            {
                "runway_id": 239129,
                "length_ft": 6571.0,
                "width_ft": 130.0,
                "surface": "ASP",
                "lighted": 1,
                "le_ident": "10",
                "le_latitude_deg": 46.7434196472168,
                "le_longitude_deg": 8.095575332641602,
                "le_elevation_ft": 1885.0,
                "le_heading_degT": 95.2,
                "he_ident": "28",
                "he_latitude_deg": 46.741310119628906,
                "he_longitude_deg": 8.121917724609375,
                "he_elevation_ft": 1895.0,
                "he_heading_degT": 275.2
            }
        ]
    },
    {
        "airport_id": 4498,
        "airport_ident": "LSMP",
        "type": "medium_airport",
        "name": "Payerne Air Base",
        "latitude_deg": 46.8432,
        "longitude_deg": 6.9150600433,
        "elevation_ft": 1465.0,
        "municipality": null,
        "iata_code": null,
        "runways": [
            {
                "runway_id": 239105,
                "length_ft": 9376.0,
                "width_ft": 130.0,
                "surface": "ASP",
                "lighted": 1,
                "le_ident": "05",
                "le_latitude_deg": 46.83470153808594,
                "le_longitude_deg": 6.901060104370117,
                "le_elevation_ft": 1463.0,
                "le_heading_degT": 48.4,
                "he_ident": "23",
                "he_latitude_deg": 46.85169982910156,
                "he_longitude_deg": 6.929069995880127,
                "he_elevation_ft": 1456.0,
                "he_heading_degT": 228.4
            }
        ]
    },
    {
        "airport_id": 29660,
        "airport_ident": "LSPA",
        "type": "small_airport",
        "name": "Amlikon Glider Airport",
        "latitude_deg": 47.5741996765,
        "longitude_deg": 9.0474996567,
        "elevation_ft": 1371.0,
        "municipality": null,
        "iata_code": null,
        "runways": [
            {
                "runway_id": 254532,
                "length_ft": 2559.0,
                "width_ft": 98.0,
                "surface": "GRASS",
                "lighted": 0,
                "le_ident": "09",
                "le_latitude_deg": NaN,
                "le_longitude_deg": NaN,
                "le_elevation_ft": 1368.0,
                "le_heading_degT": NaN,
                "he_ident": "27",
                "he_latitude_deg": NaN,
                "he_longitude_deg": NaN,
                "he_elevation_ft": 1368.0,
                "he_heading_degT": NaN
            }
        ]
    },
    {
        "airport_id": 29505,
        "airport_ident": "LSPD",
        "type": "small_airport",
        "name": "Dittingen Airport",
        "latitude_deg": 47.438599,
        "longitude_deg": 7.49139,
        "elevation_ft": 1758.0,
        "municipality": "Dittingen",
        "iata_code": null,
        "runways": [
            {
                "runway_id": 251514,
                "length_ft": 2300.0,
                "width_ft": 100.0,
                "surface": "GRASS",
                "lighted": 0,
                "le_ident": "11",
                "le_latitude_deg": NaN,
                "le_longitude_deg": NaN,
                "le_elevation_ft": 1725.0,
                "le_heading_degT": NaN,
                "he_ident": "29",
                "he_latitude_deg": NaN,
                "he_longitude_deg": NaN,
                "he_elevation_ft": 1837.0,
                "he_heading_degT": NaN
            }
        ]
    },
    {
        "airport_id": 29506,
        "airport_ident": "LSPF",
        "type": "small_airport",
        "name": "Schaffhausen Airport",
        "latitude_deg": 47.6906013489,
        "longitude_deg": 8.5269403458,
        "elevation_ft": 1519.0,
        "municipality": null,
        "iata_code": null,
        "runways": [
            {
                "runway_id": 253064,
                "length_ft": 1772.0,
                "width_ft": 98.0,
                "surface": "GRASS",
                "lighted": 0,
                "le_ident": "07",
                "le_latitude_deg": NaN,
                "le_longitude_deg": NaN,
                "le_elevation_ft": NaN,
                "le_heading_degT": NaN,
                "he_ident": "25",
                "he_latitude_deg": NaN,
                "he_longitude_deg": NaN,
                "he_elevation_ft": NaN,
                "he_heading_degT": NaN
            }
        ]
    },
    {
        "airport_id": 29507,
        "airport_ident": "LSPG",
        "type": "small_airport",
        "name": "Flugplatz Kagiswil",
        "latitude_deg": 46.908298,
        "longitude_deg": 8.25417,
        "elevation_ft": 1525.0,
        "municipality": null,
        "iata_code": null,
        "runways": [
            {
                "runway_id": 248461,
                "length_ft": 2953.0,
                "width_ft": 131.0,
                "surface": "ASPH",
                "lighted": 0,
                "le_ident": "03",
                "le_latitude_deg": NaN,
                "le_longitude_deg": NaN,
                "le_elevation_ft": NaN,
                "le_heading_degT": NaN,
                "he_ident": "21",
                "he_latitude_deg": NaN,
                "he_longitude_deg": NaN,
                "he_elevation_ft": NaN,
                "he_heading_degT": NaN
            }
        ]
    },
    {
        "airport_id": 29508,
        "airport_ident": "LSPH",
        "type": "small_airport",
        "name": "Winterthur Airport",
        "latitude_deg": 47.5149993896,
        "longitude_deg": 8.7719402313,
        "elevation_ft": 1506.0,
        "municipality": "Winterthur",
        "iata_code": null,
        "runways": [
            {
                "runway_id": 253065,
                "length_ft": 2280.0,
                "width_ft": 98.0,
                "surface": "GRASS",
                "lighted": 0,
                "le_ident": "01",
                "le_latitude_deg": NaN,
                "le_longitude_deg": NaN,
                "le_elevation_ft": NaN,
                "le_heading_degT": NaN,
                "he_ident": "19",
                "he_latitude_deg": NaN,
                "he_longitude_deg": NaN,
                "he_elevation_ft": NaN,
                "he_heading_degT": NaN
            }
        ]
    },
    {
        "airport_id": 29510,
        "airport_ident": "LSPL",
        "type": "small_airport",
        "name": "Flugplatz Langenthal",
        "latitude_deg": 47.1828,
        "longitude_deg": 7.74139,
        "elevation_ft": 1575.0,
        "municipality": null,
        "iata_code": null,
        "runways": [
            {
                "runway_id": 250743,
                "length_ft": 1919.0,
                "width_ft": 59.0,
                "surface": "CON",
                "lighted": 0,
                "le_ident": "05",
                "le_latitude_deg": 47.18140411376953,
                "le_longitude_deg": 7.738527774810791,
                "le_elevation_ft": NaN,
                "le_heading_degT": NaN,
                "he_ident": "23",
                "he_latitude_deg": 47.18400192260742,
                "he_longitude_deg": 7.74346113204956,
                "he_elevation_ft": NaN,
                "he_heading_degT": NaN
            },
            {
                "runway_id": 335710,
                "length_ft": 1099.0,
                "width_ft": 66.0,
                "surface": "GRASS",
                "lighted": 0,
                "le_ident": "05R",
                "le_latitude_deg": 47.18195724487305,
                "le_longitude_deg": 7.740003108978271,
                "le_elevation_ft": 1575.0,
                "le_heading_degT": NaN,
                "he_ident": "23L",
                "he_latitude_deg": 47.18379974365234,
                "he_longitude_deg": 7.743500232696533,
                "he_elevation_ft": 1575.0,
                "he_heading_degT": NaN
            }
        ]
    },
    {
        "airport_id": 4500,
        "airport_ident": "LSPM",
        "type": "small_airport",
        "name": "Ambri Airport",
        "latitude_deg": 46.512501,
        "longitude_deg": 8.68978,
        "elevation_ft": 3241.0,
        "municipality": "Quinto",
        "iata_code": null,
        "runways": [
            {
                "runway_id": 239104,
                "length_ft": 6529.0,
                "width_ft": 131.0,
                "surface": "concrete",
                "lighted": 0,
                "le_ident": "11",
                "le_latitude_deg": 46.51559829711914,
                "le_longitude_deg": 8.677579879760742,
                "le_elevation_ft": 3241.0,
                "le_heading_degT": NaN,
                "he_ident": "29",
                "he_latitude_deg": 46.5093994140625,
                "he_longitude_deg": 8.701939582824707,
                "he_elevation_ft": 3241.0,
                "he_heading_degT": NaN
            }
        ]
    },
    {
        "airport_id": 29511,
        "airport_ident": "LSPN",
        "type": "small_airport",
        "name": "Flugplatz Triengen",
        "latitude_deg": 47.2267,
        "longitude_deg": 8.07806,
        "elevation_ft": 1594.0,
        "municipality": null,
        "iata_code": null,
        "runways": [
            {
                "runway_id": 250744,
                "length_ft": 1870.0,
                "width_ft": 49.0,
                "surface": "ASPH",
                "lighted": 0,
                "le_ident": "15",
                "le_latitude_deg": NaN,
                "le_longitude_deg": NaN,
                "le_elevation_ft": NaN,
                "le_heading_degT": NaN,
                "he_ident": "33",
                "he_latitude_deg": NaN,
                "he_longitude_deg": NaN,
                "he_elevation_ft": NaN,
                "he_heading_degT": NaN
            }
        ]
    },
    {
        "airport_id": 29512,
        "airport_ident": "LSPO",
        "type": "small_airport",
        "name": "Flugplatz Olten",
        "latitude_deg": 47.34131,
        "longitude_deg": 7.88494,
        "elevation_ft": null,
        "municipality": null,
        "iata_code": null,
        "runways": []
    },
    {
        "airport_id": 30169,
        "airport_ident": "LSPU",
        "type": "small_airport",
        "name": "Muenster Aero Airport",
        "latitude_deg": 46.4803009033,
        "longitude_deg": 8.2633304596,
        "elevation_ft": 4380.0,
        "municipality": null,
        "iata_code": null,
        "runways": []
    },
    {
        "airport_id": 29513,
        "airport_ident": "LSPV",
        "type": "small_airport",
        "name": "Wangen-Lachen Airfield",
        "latitude_deg": 47.204835,
        "longitude_deg": 8.867346,
        "elevation_ft": 1335.0,
        "municipality": "Wangen",
        "iata_code": null,
        "runways": [
            {
                "runway_id": 253801,
                "length_ft": 1640.0,
                "width_ft": 59.0,
                "surface": "ASPH",
                "lighted": 0,
                "le_ident": "08",
                "le_latitude_deg": 47.20441055297852,
                "le_longitude_deg": 8.864147186279297,
                "le_elevation_ft": 1335.0,
                "le_heading_degT": 74.0,
                "he_ident": "26",
                "he_latitude_deg": 47.20528411865234,
                "he_longitude_deg": 8.870583534240723,
                "he_elevation_ft": 1335.0,
                "he_heading_degT": 254.0
            }
        ]
    },
    {
        "airport_id": 31852,
        "airport_ident": "LSTA",
        "type": "small_airport",
        "name": "Raron Airfield",
        "latitude_deg": 46.3036,
        "longitude_deg": 7.82333,
        "elevation_ft": 2029.0,
        "municipality": "Raron",
        "iata_code": null,
        "runways": [
            {
                "runway_id": 253802,
                "length_ft": 1817.0,
                "width_ft": 131.0,
                "surface": "ASPH",
                "lighted": 0,
                "le_ident": "10",
                "le_latitude_deg": 46.304559,
                "le_longitude_deg": 7.816091,
                "le_elevation_ft": 2083.0,
                "le_heading_degT": 91.0,
                "he_ident": "28",
                "he_latitude_deg": 46.304448,
                "he_longitude_deg": 7.823311,
                "he_elevation_ft": 2086.0,
                "he_heading_degT": 280.0
            }
        ]
    },
    {
        "airport_id": 29692,
        "airport_ident": "LSTB",
        "type": "small_airport",
        "name": "Aerodrome de Bellechasse",
        "latitude_deg": 46.979401,
        "longitude_deg": 7.13222,
        "elevation_ft": 1421.0,
        "municipality": null,
        "iata_code": null,
        "runways": [
            {
                "runway_id": 251515,
                "length_ft": 1608.0,
                "width_ft": 164.0,
                "surface": "GRASS",
                "lighted": 0,
                "le_ident": "08",
                "le_latitude_deg": NaN,
                "le_longitude_deg": NaN,
                "le_elevation_ft": NaN,
                "le_heading_degT": NaN,
                "he_ident": "26",
                "he_latitude_deg": NaN,
                "he_longitude_deg": NaN,
                "he_elevation_ft": NaN,
                "he_heading_degT": NaN
            }
        ]
    },
    {
        "airport_id": 29515,
        "airport_ident": "LSTO",
        "type": "small_airport",
        "name": "A\u00e9rodrome de M\u00f4tiers",
        "latitude_deg": 46.916698,
        "longitude_deg": 6.615,
        "elevation_ft": 2402.0,
        "municipality": null,
        "iata_code": null,
        "runways": [
            {
                "runway_id": 253066,
                "length_ft": 1857.0,
                "width_ft": 98.0,
                "surface": "GRASS",
                "lighted": 0,
                "le_ident": "05",
                "le_latitude_deg": NaN,
                "le_longitude_deg": NaN,
                "le_elevation_ft": NaN,
                "le_heading_degT": NaN,
                "he_ident": "23",
                "he_latitude_deg": NaN,
                "he_longitude_deg": NaN,
                "he_elevation_ft": NaN,
                "he_heading_degT": NaN
            }
        ]
    },
    {
        "airport_id": 29516,
        "airport_ident": "LSTR",
        "type": "small_airport",
        "name": "A\u00e9rodrome de Montricher",
        "latitude_deg": 46.590302,
        "longitude_deg": 6.40056,
        "elevation_ft": 2178.0,
        "municipality": null,
        "iata_code": null,
        "runways": [
            {
                "runway_id": 249986,
                "length_ft": 2001.0,
                "width_ft": 131.0,
                "surface": "GRASS",
                "lighted": 0,
                "le_ident": "03",
                "le_latitude_deg": NaN,
                "le_longitude_deg": NaN,
                "le_elevation_ft": NaN,
                "le_heading_degT": NaN,
                "he_ident": "21",
                "he_latitude_deg": NaN,
                "he_longitude_deg": NaN,
                "he_elevation_ft": NaN,
                "he_heading_degT": NaN
            }
        ]
    },
    {
        "airport_id": 4501,
        "airport_ident": "LSTS",
        "type": "small_airport",
        "name": "Flugplatz St Stephan",
        "latitude_deg": 46.497398,
        "longitude_deg": 7.41257,
        "elevation_ft": 3304.0,
        "municipality": null,
        "iata_code": null,
        "runways": [
            {
                "runway_id": 239114,
                "length_ft": 6726.0,
                "width_ft": 131.0,
                "surface": "ASP",
                "lighted": 0,
                "le_ident": "14",
                "le_latitude_deg": 46.50400161743164,
                "le_longitude_deg": 7.403140068054199,
                "le_elevation_ft": NaN,
                "le_heading_degT": 135.0,
                "he_ident": "32",
                "he_latitude_deg": 46.49089813232422,
                "he_longitude_deg": 7.4220099449157715,
                "he_elevation_ft": NaN,
                "he_heading_degT": 315.0
            }
        ]
    },
    {
        "airport_id": 30588,
        "airport_ident": "LSTZ",
        "type": "small_airport",
        "name": "Flugplatz Zweisimmen",
        "latitude_deg": 46.552502,
        "longitude_deg": 7.38056,
        "elevation_ft": 3068.0,
        "municipality": null,
        "iata_code": null,
        "runways": [
            {
                "runway_id": 342819,
                "length_ft": 1594.0,
                "width_ft": 130.0,
                "surface": "asphalt",
                "lighted": 0,
                "le_ident": "17",
                "le_latitude_deg": NaN,
                "le_longitude_deg": NaN,
                "le_elevation_ft": 3057.0,
                "le_heading_degT": 172.0,
                "he_ident": "35",
                "he_latitude_deg": NaN,
                "he_longitude_deg": NaN,
                "he_elevation_ft": 3065.0,
                "he_heading_degT": 352.0
            }
        ]
    },
    {
        "airport_id": 354300,
        "airport_ident": "LSVD",
        "type": "small_airport",
        "name": "Clariden-H\u00fcfifirn",
        "latitude_deg": 46.821944,
        "longitude_deg": 8.880277,
        "elevation_ft": null,
        "municipality": "Plateau n\u00f6rdlich Planurah\u00fctte",
        "iata_code": null,
        "runways": []
    },
    {
        "airport_id": 324130,
        "airport_ident": "LSXG",
        "type": "heliport",
        "name": "Gsteigwiler Heliport",
        "latitude_deg": 46.647697,
        "longitude_deg": 7.878219,
        "elevation_ft": null,
        "municipality": "Gsteigwiler",
        "iata_code": null,
        "runways": [
            {
                "runway_id": 333636,
                "length_ft": 82.0,
                "width_ft": 82.0,
                "surface": "Concrete",
                "lighted": 0,
                "le_ident": "H1",
                "le_latitude_deg": NaN,
                "le_longitude_deg": NaN,
                "le_elevation_ft": NaN,
                "le_heading_degT": NaN,
                "he_ident": NaN,
                "he_latitude_deg": NaN,
                "he_longitude_deg": NaN,
                "he_elevation_ft": NaN,
                "he_heading_degT": NaN
            }
        ]
    },
    {
        "airport_id": 43114,
        "airport_ident": "LSXH",
        "type": "heliport",
        "name": "Holziken Heliport",
        "latitude_deg": 47.314323,
        "longitude_deg": 8.026514,
        "elevation_ft": null,
        "municipality": "Holziken",
        "iata_code": null,
        "runways": []
    },
    {
        "airport_id": 324185,
        "airport_ident": "LSXL",
        "type": "heliport",
        "name": "Lauterbrunnen Heliport",
        "latitude_deg": 46.585497,
        "longitude_deg": 7.913509,
        "elevation_ft": null,
        "municipality": "Lauterbrunnen",
        "iata_code": null,
        "runways": []
    },
    {
        "airport_id": 324892,
        "airport_ident": "LSXM",
        "type": "heliport",
        "name": "St Moritz-Bad Heliport",
        "latitude_deg": 46.47895,
        "longitude_deg": 9.82422,
        "elevation_ft": null,
        "municipality": "St Moritz",
        "iata_code": null,
        "runways": []
    },
    {
        "airport_id": 43118,
        "airport_ident": "LSXO",
        "type": "heliport",
        "name": "St. Gallen-Winkeln Heliport",
        "latitude_deg": 47.4054985046,
        "longitude_deg": 9.2903003693,
        "elevation_ft": null,
        "municipality": "St. Gallen",
        "iata_code": null,
        "runways": []
    },
    {
        "airport_id": 43113,
        "airport_ident": "LSXP",
        "type": "heliport",
        "name": "Pfaffnau Heliport",
        "latitude_deg": 47.23513,
        "longitude_deg": 7.91001,
        "elevation_ft": null,
        "municipality": "Pfaffnau",
        "iata_code": null,
        "runways": []
    },
    {
        "airport_id": 43116,
        "airport_ident": "LSXR",
        "type": "heliport",
        "name": "Lodrino Heliport",
        "latitude_deg": 46.2901725769,
        "longitude_deg": 8.9929275513,
        "elevation_ft": null,
        "municipality": "Lodrino",
        "iata_code": null,
        "runways": []
    },
    {
        "airport_id": 43197,
        "airport_ident": "LSXS",
        "type": "heliport",
        "name": "Schindellegi Heliport",
        "latitude_deg": 47.169883728,
        "longitude_deg": 8.7156496048,
        "elevation_ft": null,
        "municipality": "Schindellegi",
        "iata_code": null,
        "runways": []
    },
    {
        "airport_id": 353992,
        "airport_ident": "LSXT",
        "type": "heliport",
        "name": "Trogen Heliport",
        "latitude_deg": 47.408977,
        "longitude_deg": 9.473074,
        "elevation_ft": 2647.0,
        "municipality": "Trogen",
        "iata_code": null,
        "runways": []
    },
    {
        "airport_id": 324197,
        "airport_ident": "LSXU",
        "type": "heliport",
        "name": "Untervaz Heliport",
        "latitude_deg": 46.912621,
        "longitude_deg": 9.55081,
        "elevation_ft": null,
        "municipality": "Untervaz",
        "iata_code": null,
        "runways": []
    },
    {
        "airport_id": 43115,
        "airport_ident": "LSXW",
        "type": "heliport",
        "name": "W\u00fcrenlingen Heliport",
        "latitude_deg": 47.5356140137,
        "longitude_deg": 8.2461051941,
        "elevation_ft": null,
        "municipality": "W\u00fcrenlingen",
        "iata_code": null,
        "runways": []
    },
    {
        "airport_id": 43092,
        "airport_ident": "LSXY",
        "type": "heliport",
        "name": "Leysin  Heliport",
        "latitude_deg": 46.341801,
        "longitude_deg": 7.0204,
        "elevation_ft": null,
        "municipality": "Leysin",
        "iata_code": null,
        "runways": []
    },
    {
        "airport_id": 4502,
        "airport_ident": "LSZA",
        "type": "medium_airport",
        "name": "Lugano Airport",
        "latitude_deg": 46.0042991638,
        "longitude_deg": 8.9105796814,
        "elevation_ft": 915.0,
        "municipality": "Lugano",
        "iata_code": "LUG",
        "runways": [
            {
                "runway_id": 239108,
                "length_ft": 4429.0,
                "width_ft": 98.0,
                "surface": "ASP",
                "lighted": 1,
                "le_ident": "01",
                "le_latitude_deg": 45.99850082397461,
                "le_longitude_deg": 8.907759666442871,
                "le_elevation_ft": 896.0,
                "le_heading_degT": 18.9,
                "he_ident": "19",
                "he_latitude_deg": 46.0099983215332,
                "he_longitude_deg": 8.913390159606934,
                "he_elevation_ft": 915.0,
                "he_heading_degT": 198.9
            }
        ]
    },
    {
        "airport_id": 4503,
        "airport_ident": "LSZB",
        "type": "medium_airport",
        "name": "Bern-Belp Airport",
        "latitude_deg": 46.913419,
        "longitude_deg": 7.499747,
        "elevation_ft": 1671.0,
        "municipality": "Bern-Belp",
        "iata_code": "BRN",
        "runways": [
            {
                "runway_id": 239123,
                "length_ft": 5676.0,
                "width_ft": 98.0,
                "surface": "ASP",
                "lighted": 1,
                "le_ident": "14",
                "le_latitude_deg": 46.9193000793457,
                "le_longitude_deg": 7.490799903869629,
                "le_elevation_ft": 1668.0,
                "le_heading_degT": 140.1,
                "he_ident": "32",
                "he_latitude_deg": 46.90890121459961,
                "he_longitude_deg": 7.503499984741211,
                "he_elevation_ft": 1674.0,
                "he_heading_degT": 320.1
            },
            {
                "runway_id": 239125,
                "length_ft": 2133.0,
                "width_ft": 98.0,
                "surface": "GRS",
                "lighted": 0,
                "le_ident": "14L",
                "le_latitude_deg": 46.91450119018555,
                "le_longitude_deg": 7.495100021362305,
                "le_elevation_ft": NaN,
                "le_heading_degT": 140.0,
                "he_ident": "32R",
                "he_latitude_deg": 46.90999984741211,
                "he_longitude_deg": 7.500579833984375,
                "he_elevation_ft": NaN,
                "he_heading_degT": 320.0
            },
            {
                "runway_id": 239124,
                "length_ft": 2125.0,
                "width_ft": 98.0,
                "surface": "GRS",
                "lighted": 0,
                "le_ident": "14R",
                "le_latitude_deg": 46.91419982910156,
                "le_longitude_deg": 7.494490146636963,
                "le_elevation_ft": NaN,
                "le_heading_degT": 140.0,
                "he_ident": "32L",
                "he_latitude_deg": 46.909698486328125,
                "he_longitude_deg": 7.499949932098389,
                "he_elevation_ft": NaN,
                "he_heading_degT": 320.0
            }
        ]
    },
    {
        "airport_id": 46492,
        "airport_ident": "LSZC",
        "type": "small_airport",
        "name": "Buochs Airport",
        "latitude_deg": 46.974444,
        "longitude_deg": 8.396944,
        "elevation_ft": 1475.0,
        "municipality": "Buochs",
        "iata_code": "BXO",
        "runways": [
            {
                "runway_id": 239107,
                "length_ft": 6561.0,
                "width_ft": 130.0,
                "surface": "ASP",
                "lighted": 1,
                "le_ident": "06",
                "le_latitude_deg": 46.97169876098633,
                "le_longitude_deg": 8.386670112609863,
                "le_elevation_ft": 1475.0,
                "le_heading_degT": 62.0,
                "he_ident": "24",
                "he_latitude_deg": 46.97999954223633,
                "he_longitude_deg": 8.40999984741211,
                "he_elevation_ft": 1435.0,
                "he_heading_degT": 242.0
            },
            {
                "runway_id": 239106,
                "length_ft": 2771.0,
                "width_ft": 130.0,
                "surface": "ASP",
                "lighted": 0,
                "le_ident": "07R",
                "le_latitude_deg": 46.97079849243164,
                "le_longitude_deg": 8.39048957824707,
                "le_elevation_ft": 1475.0,
                "le_heading_degT": 62.0,
                "he_ident": "25L",
                "he_latitude_deg": 46.976898193359375,
                "he_longitude_deg": 8.407369613647461,
                "he_elevation_ft": 1445.0,
                "he_heading_degT": 242.0
            }
        ]
    },
    {
        "airport_id": 29518,
        "airport_ident": "LSZE",
        "type": "small_airport",
        "name": "Bad Ragaz Airport",
        "latitude_deg": 47.014904,
        "longitude_deg": 9.481815,
        "elevation_ft": 1617.0,
        "municipality": "Bad Ragaz",
        "iata_code": null,
        "runways": [
            {
                "runway_id": 247724,
                "length_ft": 1624.0,
                "width_ft": 39.0,
                "surface": "ASPH",
                "lighted": 0,
                "le_ident": "12",
                "le_latitude_deg": NaN,
                "le_longitude_deg": NaN,
                "le_elevation_ft": NaN,
                "le_heading_degT": NaN,
                "he_ident": "30",
                "he_latitude_deg": NaN,
                "he_longitude_deg": NaN,
                "he_elevation_ft": NaN,
                "he_heading_degT": NaN
            }
        ]
    },
    {
        "airport_id": 29519,
        "airport_ident": "LSZF",
        "type": "small_airport",
        "name": "Flugplatz Birrfeld",
        "latitude_deg": 47.4436,
        "longitude_deg": 8.23361,
        "elevation_ft": 1300.0,
        "municipality": null,
        "iata_code": null,
        "runways": [
            {
                "runway_id": 302425,
                "length_ft": 2356.0,
                "width_ft": 65.0,
                "surface": "asphalt",
                "lighted": 0,
                "le_ident": "08L",
                "le_latitude_deg": NaN,
                "le_longitude_deg": NaN,
                "le_elevation_ft": NaN,
                "le_heading_degT": NaN,
                "he_ident": "26R",
                "he_latitude_deg": NaN,
                "he_longitude_deg": NaN,
                "he_elevation_ft": NaN,
                "he_heading_degT": NaN
            },
            {
                "runway_id": 256699,
                "length_ft": 2264.0,
                "width_ft": 66.0,
                "surface": "GRASS",
                "lighted": 0,
                "le_ident": "08R",
                "le_latitude_deg": NaN,
                "le_longitude_deg": NaN,
                "le_elevation_ft": NaN,
                "le_heading_degT": NaN,
                "he_ident": "26L",
                "he_latitude_deg": NaN,
                "he_longitude_deg": NaN,
                "he_elevation_ft": NaN,
                "he_heading_degT": NaN
            }
        ]
    },
    {
        "airport_id": 4504,
        "airport_ident": "LSZG",
        "type": "medium_airport",
        "name": "Grenchen Airport",
        "latitude_deg": 47.181599,
        "longitude_deg": 7.41719,
        "elevation_ft": 1411.0,
        "municipality": "Grenchen",
        "iata_code": null,
        "runways": [
            {
                "runway_id": 239130,
                "length_ft": 3281.0,
                "width_ft": 75.0,
                "surface": "ASP",
                "lighted": 1,
                "le_ident": "06",
                "le_latitude_deg": 47.179798,
                "le_longitude_deg": 7.41118,
                "le_elevation_ft": 1407.0,
                "le_heading_degT": 64.0,
                "he_ident": "24",
                "he_latitude_deg": 47.183498,
                "he_longitude_deg": 7.4232,
                "he_elevation_ft": 1405.0,
                "he_heading_degT": 244.0
            },
            {
                "runway_id": 239132,
                "length_ft": 1640.0,
                "width_ft": 98.0,
                "surface": "GRS",
                "lighted": 0,
                "le_ident": "06L",
                "le_latitude_deg": 47.18059921264648,
                "le_longitude_deg": 7.411280155181885,
                "le_elevation_ft": NaN,
                "le_heading_degT": 66.0,
                "he_ident": "24R",
                "he_latitude_deg": 47.18239974975586,
                "he_longitude_deg": 7.4173102378845215,
                "he_elevation_ft": NaN,
                "he_heading_degT": 246.0
            },
            {
                "runway_id": 239131,
                "length_ft": 2297.0,
                "width_ft": 66.0,
                "surface": "GRS",
                "lighted": 1,
                "le_ident": "06R",
                "le_latitude_deg": 47.1796989440918,
                "le_longitude_deg": 7.411139965057373,
                "le_elevation_ft": NaN,
                "le_heading_degT": 70.0,
                "he_ident": "24L",
                "he_latitude_deg": 47.18190002441406,
                "he_longitude_deg": 7.419819831848144,
                "he_elevation_ft": NaN,
                "he_heading_degT": 250.0
            },
            {
                "runway_id": 260323,
                "length_ft": NaN,
                "width_ft": NaN,
                "surface": "UNK",
                "lighted": 0,
                "le_ident": "07",
                "le_latitude_deg": NaN,
                "le_longitude_deg": NaN,
                "le_elevation_ft": 1407.0,
                "le_heading_degT": NaN,
                "he_ident": "25",
                "he_latitude_deg": NaN,
                "he_longitude_deg": NaN,
                "he_elevation_ft": 1407.0,
                "he_heading_degT": NaN
            }
        ]
    },
    {
        "airport_id": 4505,
        "airport_ident": "LSZH",
        "type": "large_airport",
        "name": "Z\u00fcrich Airport",
        "latitude_deg": 47.458056,
        "longitude_deg": 8.548056,
        "elevation_ft": 1417.0,
        "municipality": "Zurich",
        "iata_code": "ZRH",
        "runways": [
            {
                "runway_id": 239120,
                "length_ft": 8202.0,
                "width_ft": 197.0,
                "surface": "CON",
                "lighted": 1,
                "le_ident": "10",
                "le_latitude_deg": 47.45890045166016,
                "le_longitude_deg": 8.537469863891602,
                "le_elevation_ft": 1391.0,
                "le_heading_degT": 96.0,
                "he_ident": "28",
                "he_latitude_deg": 47.45660018920898,
                "he_longitude_deg": 8.570449829101562,
                "he_elevation_ft": 1416.0,
                "he_heading_degT": 276.0
            },
            {
                "runway_id": 239121,
                "length_ft": 10827.0,
                "width_ft": 197.0,
                "surface": "CON",
                "lighted": 1,
                "le_ident": "14",
                "le_latitude_deg": 47.48310089111328,
                "le_longitude_deg": 8.534729957580566,
                "le_elevation_ft": 1402.0,
                "le_heading_degT": 137.2,
                "he_ident": "32",
                "he_latitude_deg": 47.46129989624024,
                "he_longitude_deg": 8.564459800720215,
                "he_elevation_ft": 1402.0,
                "he_heading_degT": 317.2
            },
            {
                "runway_id": 239122,
                "length_ft": 12139.0,
                "width_ft": 197.0,
                "surface": "CON",
                "lighted": 1,
                "le_ident": "16",
                "le_latitude_deg": 47.47560119628906,
                "le_longitude_deg": 8.53594970703125,
                "le_elevation_ft": 1390.0,
                "le_heading_degT": 155.0,
                "he_ident": "34",
                "he_latitude_deg": 47.44540023803711,
                "he_longitude_deg": 8.556730270385742,
                "he_elevation_ft": 1388.0,
                "he_heading_degT": 335.0
            }
        ]
    },
    {
        "airport_id": 29520,
        "airport_ident": "LSZI",
        "type": "small_airport",
        "name": "Flugplatz Fricktal-Schupfart",
        "latitude_deg": 47.5089,
        "longitude_deg": 7.95,
        "elevation_ft": 1788.0,
        "municipality": "Schupfart",
        "iata_code": null,
        "runways": [
            {
                "runway_id": 252291,
                "length_ft": 1739.0,
                "width_ft": 98.0,
                "surface": "GRASS",
                "lighted": 0,
                "le_ident": "07",
                "le_latitude_deg": NaN,
                "le_longitude_deg": NaN,
                "le_elevation_ft": NaN,
                "le_heading_degT": NaN,
                "he_ident": "25",
                "he_latitude_deg": NaN,
                "he_longitude_deg": NaN,
                "he_elevation_ft": NaN,
                "he_heading_degT": NaN
            }
        ]
    },
    {
        "airport_id": 29521,
        "airport_ident": "LSZJ",
        "type": "small_airport",
        "name": "Courtelary Airport",
        "latitude_deg": 47.1836013794,
        "longitude_deg": 7.0908298492,
        "elevation_ft": 2247.0,
        "municipality": null,
        "iata_code": null,
        "runways": [
            {
                "runway_id": 246304,
                "length_ft": 1640.0,
                "width_ft": 98.0,
                "surface": "GRASS",
                "lighted": 0,
                "le_ident": "06",
                "le_latitude_deg": NaN,
                "le_longitude_deg": NaN,
                "le_elevation_ft": NaN,
                "le_heading_degT": NaN,
                "he_ident": "24",
                "he_latitude_deg": NaN,
                "he_longitude_deg": NaN,
                "he_elevation_ft": NaN,
                "he_heading_degT": NaN
            }
        ]
    },
    {
        "airport_id": 29522,
        "airport_ident": "LSZK",
        "type": "small_airport",
        "name": "Flugplatz Speck-Fehraltorf",
        "latitude_deg": 47.3764,
        "longitude_deg": 8.7575,
        "elevation_ft": 1748.0,
        "municipality": null,
        "iata_code": null,
        "runways": [
            {
                "runway_id": 254533,
                "length_ft": 1969.0,
                "width_ft": 59.0,
                "surface": "GRASS",
                "lighted": 0,
                "le_ident": "12",
                "le_latitude_deg": NaN,
                "le_longitude_deg": NaN,
                "le_elevation_ft": NaN,
                "le_heading_degT": NaN,
                "he_ident": "30",
                "he_latitude_deg": NaN,
                "he_longitude_deg": NaN,
                "he_elevation_ft": NaN,
                "he_heading_degT": NaN
            }
        ]
    },
    {
        "airport_id": 29523,
        "airport_ident": "LSZL",
        "type": "small_airport",
        "name": "Locarno Airport",
        "latitude_deg": 46.160801,
        "longitude_deg": 8.87861,
        "elevation_ft": 650.0,
        "municipality": "Locarno",
        "iata_code": null,
        "runways": [
            {
                "runway_id": 249235,
                "length_ft": 2297.0,
                "width_ft": 98.0,
                "surface": "GRASS",
                "lighted": 0,
                "le_ident": "08C",
                "le_latitude_deg": 46.16017150878906,
                "le_longitude_deg": 8.874170303344727,
                "le_elevation_ft": 650.0,
                "le_heading_degT": 78.0,
                "he_ident": "26C",
                "he_latitude_deg": 46.16133117675781,
                "he_longitude_deg": 8.883000373840332,
                "he_elevation_ft": 650.0,
                "he_heading_degT": 258.0
            },
            {
                "runway_id": 249236,
                "length_ft": 2625.0,
                "width_ft": 75.0,
                "surface": "ASPH",
                "lighted": 0,
                "le_ident": "08L",
                "le_latitude_deg": 46.164669036865234,
                "le_longitude_deg": 8.874329566955566,
                "le_elevation_ft": 650.0,
                "le_heading_degT": 78.0,
                "he_ident": "26R",
                "he_latitude_deg": 46.16566848754883,
                "he_longitude_deg": 8.882169723510742,
                "he_elevation_ft": 650.0,
                "he_heading_degT": 258.0
            },
            {
                "runway_id": 331684,
                "length_ft": 2297.0,
                "width_ft": 98.0,
                "surface": "GRASS",
                "lighted": 0,
                "le_ident": "08R",
                "le_latitude_deg": 46.158668518066406,
                "le_longitude_deg": 8.874670028686523,
                "le_elevation_ft": 650.0,
                "le_heading_degT": 78.0,
                "he_ident": "26L",
                "he_latitude_deg": 46.15982818603516,
                "he_longitude_deg": 8.883500099182129,
                "he_elevation_ft": 650.0,
                "he_heading_degT": 258.0
            }
        ]
    },
    {
        "airport_id": 4496,
        "airport_ident": "LSZM",
        "type": "small_airport",
        "name": "Mollis Airport",
        "latitude_deg": 47.078353,
        "longitude_deg": 9.064662,
        "elevation_ft": 1485.0,
        "municipality": "Mollis",
        "iata_code": null,
        "runways": [
            {
                "runway_id": 239119,
                "length_ft": 5905.0,
                "width_ft": 130.0,
                "surface": "ASP",
                "lighted": 0,
                "le_ident": "01",
                "le_latitude_deg": 47.070899963378906,
                "le_longitude_deg": 9.062170028686523,
                "le_elevation_ft": 1485.0,
                "le_heading_degT": 13.0,
                "he_ident": "19",
                "he_latitude_deg": 47.08449935913086,
                "he_longitude_deg": 9.066780090332031,
                "he_elevation_ft": 1445.0,
                "he_heading_degT": 193.0
            }
        ]
    },
    {
        "airport_id": 29524,
        "airport_ident": "LSZN",
        "type": "small_airport",
        "name": "Flugplatz Hausen am Albis",
        "latitude_deg": 47.238602,
        "longitude_deg": 8.51556,
        "elevation_ft": 1928.0,
        "municipality": null,
        "iata_code": null,
        "runways": [
            {
                "runway_id": 342534,
                "length_ft": 2297.0,
                "width_ft": 59.0,
                "surface": "ASPH",
                "lighted": 0,
                "le_ident": "09",
                "le_latitude_deg": NaN,
                "le_longitude_deg": NaN,
                "le_elevation_ft": NaN,
                "le_heading_degT": 91.0,
                "he_ident": "27",
                "he_latitude_deg": NaN,
                "he_longitude_deg": NaN,
                "he_elevation_ft": NaN,
                "he_heading_degT": 271.0
            },
            {
                "runway_id": 257431,
                "length_ft": 2297.0,
                "width_ft": 98.0,
                "surface": "GRASS",
                "lighted": 0,
                "le_ident": "09G",
                "le_latitude_deg": NaN,
                "le_longitude_deg": NaN,
                "le_elevation_ft": NaN,
                "le_heading_degT": 91.0,
                "he_ident": "27G",
                "he_latitude_deg": NaN,
                "he_longitude_deg": NaN,
                "he_elevation_ft": NaN,
                "he_heading_degT": 271.0
            }
        ]
    },
    {
        "airport_id": 29525,
        "airport_ident": "LSZO",
        "type": "small_airport",
        "name": "Flugplatz Berom\u00fcnster",
        "latitude_deg": 47.189999,
        "longitude_deg": 8.20472,
        "elevation_ft": 2146.0,
        "municipality": "Lucerne",
        "iata_code": null,
        "runways": [
            {
                "runway_id": 255244,
                "length_ft": 1673.0,
                "width_ft": 98.0,
                "surface": "GRASS",
                "lighted": 0,
                "le_ident": "16L",
                "le_latitude_deg": NaN,
                "le_longitude_deg": NaN,
                "le_elevation_ft": NaN,
                "le_heading_degT": NaN,
                "he_ident": "33R",
                "he_latitude_deg": NaN,
                "he_longitude_deg": NaN,
                "he_elevation_ft": NaN,
                "he_heading_degT": NaN
            },
            {
                "runway_id": 255245,
                "length_ft": 1591.0,
                "width_ft": 98.0,
                "surface": "GRASS",
                "lighted": 0,
                "le_ident": "16R",
                "le_latitude_deg": NaN,
                "le_longitude_deg": NaN,
                "le_elevation_ft": NaN,
                "le_heading_degT": NaN,
                "he_ident": "33L",
                "he_latitude_deg": NaN,
                "he_longitude_deg": NaN,
                "he_elevation_ft": NaN,
                "he_heading_degT": NaN
            }
        ]
    },
    {
        "airport_id": 29526,
        "airport_ident": "LSZP",
        "type": "small_airport",
        "name": "Flugplatz Biel-Kappelen",
        "latitude_deg": 47.089199,
        "longitude_deg": 7.29,
        "elevation_ft": 1437.0,
        "municipality": null,
        "iata_code": null,
        "runways": [
            {
                "runway_id": 256700,
                "length_ft": 2264.0,
                "width_ft": 82.0,
                "surface": "GRASS",
                "lighted": 0,
                "le_ident": "04",
                "le_latitude_deg": 47.08606,
                "le_longitude_deg": 7.285767,
                "le_elevation_ft": 1437.0,
                "le_heading_degT": NaN,
                "he_ident": "22",
                "he_latitude_deg": 47.090374,
                "he_longitude_deg": 7.292297,
                "he_elevation_ft": 1437.0,
                "he_heading_degT": NaN
            }
        ]
    },
    {
        "airport_id": 300136,
        "airport_ident": "LSZQ",
        "type": "small_airport",
        "name": "Bressaucourt Airport",
        "latitude_deg": 47.392677,
        "longitude_deg": 7.028648,
        "elevation_ft": 1866.0,
        "municipality": "Bressaucourt",
        "iata_code": null,
        "runways": [
            {
                "runway_id": 300137,
                "length_ft": 2625.0,
                "width_ft": 59.0,
                "surface": "ASP",
                "lighted": 1,
                "le_ident": "07",
                "le_latitude_deg": NaN,
                "le_longitude_deg": NaN,
                "le_elevation_ft": NaN,
                "le_heading_degT": NaN,
                "he_ident": "25",
                "he_latitude_deg": NaN,
                "he_longitude_deg": NaN,
                "he_elevation_ft": NaN,
                "he_heading_degT": NaN
            }
        ]
    },
    {
        "airport_id": 4506,
        "airport_ident": "LSZR",
        "type": "medium_airport",
        "name": "St Gallen Altenrhein Airport",
        "latitude_deg": 47.485001,
        "longitude_deg": 9.56077,
        "elevation_ft": 1306.0,
        "municipality": "Altenrhein",
        "iata_code": "ACH",
        "runways": [
            {
                "runway_id": 239110,
                "length_ft": NaN,
                "width_ft": NaN,
                "surface": NaN,
                "lighted": 0,
                "le_ident": "-",
                "le_latitude_deg": NaN,
                "le_longitude_deg": NaN,
                "le_elevation_ft": NaN,
                "le_heading_degT": NaN,
                "he_ident": "-",
                "he_latitude_deg": NaN,
                "he_longitude_deg": NaN,
                "he_elevation_ft": NaN,
                "he_heading_degT": NaN
            },
            {
                "runway_id": 260325,
                "length_ft": 4774.0,
                "width_ft": 98.0,
                "surface": "ASPH",
                "lighted": 1,
                "le_ident": "10",
                "le_latitude_deg": 47.486,
                "le_longitude_deg": 9.551606,
                "le_elevation_ft": 1306.0,
                "le_heading_degT": 99.0,
                "he_ident": "28",
                "he_latitude_deg": 47.4842,
                "he_longitude_deg": 9.568962,
                "he_elevation_ft": 1306.0,
                "he_heading_degT": 279.0
            },
            {
                "runway_id": 239111,
                "length_ft": 2657.0,
                "width_ft": 65.0,
                "surface": "GRASS",
                "lighted": 0,
                "le_ident": "10G",
                "le_latitude_deg": 47.48659896850586,
                "le_longitude_deg": 9.556280136108398,
                "le_elevation_ft": NaN,
                "le_heading_degT": 99.0,
                "he_ident": "28G",
                "he_latitude_deg": 47.48590087890625,
                "he_longitude_deg": 9.564169883728027,
                "he_elevation_ft": NaN,
                "he_heading_degT": 279.0
            }
        ]
    },
    {
        "airport_id": 4507,
        "airport_ident": "LSZS",
        "type": "medium_airport",
        "name": "Samedan Airport",
        "latitude_deg": 46.5340995789,
        "longitude_deg": 9.8841104507,
        "elevation_ft": 5600.0,
        "municipality": null,
        "iata_code": "SMV",
        "runways": [
            {
                "runway_id": 239128,
                "length_ft": 5905.0,
                "width_ft": 130.0,
                "surface": "ASP",
                "lighted": 1,
                "le_ident": "03",
                "le_latitude_deg": 46.526798248291016,
                "le_longitude_deg": 9.878290176391602,
                "le_elevation_ft": 5600.0,
                "le_heading_degT": 29.0,
                "he_ident": "21",
                "he_latitude_deg": 46.54140090942383,
                "he_longitude_deg": 9.889989852905272,
                "he_elevation_ft": 5574.0,
                "he_heading_degT": 209.0
            }
        ]
    },
    {
        "airport_id": 29527,
        "airport_ident": "LSZT",
        "type": "small_airport",
        "name": "Lommis Airfield",
        "latitude_deg": 47.524399,
        "longitude_deg": 9.00306,
        "elevation_ft": 1539.0,
        "municipality": "Lommis",
        "iata_code": null,
        "runways": [
            {
                "runway_id": 255976,
                "length_ft": 2018.0,
                "width_ft": 66.0,
                "surface": "GRASS",
                "lighted": 0,
                "le_ident": "06",
                "le_latitude_deg": NaN,
                "le_longitude_deg": NaN,
                "le_elevation_ft": NaN,
                "le_heading_degT": NaN,
                "he_ident": "24",
                "he_latitude_deg": NaN,
                "he_longitude_deg": NaN,
                "he_elevation_ft": NaN,
                "he_heading_degT": NaN
            }
        ]
    },
    {
        "airport_id": 29528,
        "airport_ident": "LSZU",
        "type": "small_airport",
        "name": "Flugplatz Buttwil",
        "latitude_deg": 47.264702,
        "longitude_deg": 8.3025,
        "elevation_ft": 2372.0,
        "municipality": null,
        "iata_code": null,
        "runways": [
            {
                "runway_id": 250745,
                "length_ft": 2215.0,
                "width_ft": 98.0,
                "surface": "GRASS",
                "lighted": 0,
                "le_ident": "16",
                "le_latitude_deg": NaN,
                "le_longitude_deg": NaN,
                "le_elevation_ft": NaN,
                "le_heading_degT": NaN,
                "he_ident": "34",
                "he_latitude_deg": NaN,
                "he_longitude_deg": NaN,
                "he_elevation_ft": NaN,
                "he_heading_degT": NaN
            }
        ]
    },
    {
        "airport_id": 29529,
        "airport_ident": "LSZV",
        "type": "small_airport",
        "name": "Sportflugplatz Sitterdorf",
        "latitude_deg": 47.5089,
        "longitude_deg": 9.26278,
        "elevation_ft": 1660.0,
        "municipality": null,
        "iata_code": null,
        "runways": [
            {
                "runway_id": 253803,
                "length_ft": 1575.0,
                "width_ft": 66.0,
                "surface": "GRASS",
                "lighted": 0,
                "le_ident": "07",
                "le_latitude_deg": 47.508507,
                "le_longitude_deg": 9.259597,
                "le_elevation_ft": 1660.0,
                "le_heading_degT": NaN,
                "he_ident": "25",
                "he_latitude_deg": 47.50948,
                "he_longitude_deg": 9.265808,
                "he_elevation_ft": 1660.0,
                "he_heading_degT": NaN
            }
        ]
    },
    {
        "airport_id": 29530,
        "airport_ident": "LSZW",
        "type": "small_airport",
        "name": "Thun Airfield",
        "latitude_deg": 46.756401,
        "longitude_deg": 7.60056,
        "elevation_ft": 1837.0,
        "municipality": "Thun",
        "iata_code": null,
        "runways": [
            {
                "runway_id": 255977,
                "length_ft": 2625.0,
                "width_ft": 98.0,
                "surface": "GRASS",
                "lighted": 0,
                "le_ident": "14",
                "le_latitude_deg": 46.75824737548828,
                "le_longitude_deg": 7.598282814025879,
                "le_elevation_ft": 1837.0,
                "le_heading_degT": NaN,
                "he_ident": "32",
                "he_latitude_deg": 46.75431823730469,
                "he_longitude_deg": 7.6030778884887695,
                "he_elevation_ft": 1837.0,
                "he_heading_degT": NaN
            }
        ]
    },
    {
        "airport_id": 29531,
        "airport_ident": "LSZX",
        "type": "small_airport",
        "name": "Sch\u00e4nis Airport",
        "latitude_deg": 47.1717,
        "longitude_deg": 9.03944,
        "elevation_ft": 1365.0,
        "municipality": "Sch\u00e4nis",
        "iata_code": null,
        "runways": [
            {
                "runway_id": 255978,
                "length_ft": 1706.0,
                "width_ft": 49.0,
                "surface": "CONC",
                "lighted": 0,
                "le_ident": "16",
                "le_latitude_deg": NaN,
                "le_longitude_deg": NaN,
                "le_elevation_ft": NaN,
                "le_heading_degT": NaN,
                "he_ident": "34",
                "he_latitude_deg": NaN,
                "he_longitude_deg": NaN,
                "he_elevation_ft": NaN,
                "he_heading_degT": NaN
            }
        ]
    }
]}